[{"url":"http:\/\/testedevelocidade.vivo.com.br:8080\/speedtest\/upload.php","lat":"-23.5000","lon":"-46.6167","distance":12,"name":"S\u00e3o Paulo","country":"Brazil","cc":"BR","sponsor":"Vivo SPPD","id":"16438","preferred":0,"https_functional":1,"host":"testedevelocidade.vivo.com.br.prod.hosts.ooklaserver.net:8080","force_ping_select":1},{"url":"http:\/\/sts.testepower.com.br:8080\/speedtest\/upload.php","lat":"-23.9561","lon":"-46.3264","distance":24,"name":"Santos","country":"Brazil","cc":"BR","sponsor":"VIVO STS","id":"21552","preferred":0,"https_functional":1,"host":"sts.testepower.com.br.prod.hosts.ooklaserver.net:8080"},{"url":"http:\/\/soo.testepower.com.br:8080\/speedtest\/upload.php","lat":"-23.2237","lon":"-45.9009","distance":50,"name":"S\u00e3o Jos\u00e9","country":"Brazil","cc":"BR","sponsor":"Vivo - SOO","id":"26612","preferred":0,"https_functional":1,"host":"soo.testepower.com.br.prod.hosts.ooklaserver.net:8080"},{"url":"http:\/\/cta.testepower.com.br:8080\/speedtest\/upload.php","lat":"-25.4167","lon":"-49.2500","distance":210,"name":"Curitiba","country":"Brazil","cc":"BR","sponsor":"Vivo CTA","id":"22092","preferred":0,"https_functional":1,"host":"cta.testepower.com.br.prod.hosts.ooklaserver.net:8080"},{"url":"http:\/\/speedtest.vivolabs.com.br:8080\/speedtest\/upload.php","lat":"-25.4167","lon":"-49.2500","distance":210,"name":"Curitiba","country":"Brazil","cc":"BR","sponsor":"Vivolabs","id":"25445","preferred":0,"https_functional":1,"host":"speedtest.vivolabs.com.br:8080"},{"url":"http:\/\/rjo.testepower.com.br:8080\/speedtest\/upload.php","lat":"-22.9068","lon":"-43.1729","distance":220,"name":"Rio de Janeiro","country":"Brazil","cc":"BR","sponsor":"VIVO RJO","id":"21549","preferred":0,"https_functional":1,"host":"rjo.testepower.com.br.prod.hosts.ooklaserver.net:8080"},{"url":"http:\/\/bhe.testepower.com.br:8080\/speedtest\/upload.php","lat":"-19.9167","lon":"-43.9333","distance":308,"name":"Belo Horizonte","country":"Brazil","cc":"BR","sponsor":"VIVO BHE","id":"21540","preferred":0,"https_functional":1,"host":"bhe.testepower.com.br.prod.hosts.ooklaserver.net:8080"},{"url":"http:\/\/iig.testepower.com.br:8080\/speedtest\/upload.php","lat":"-19.5000","lon":"-42.5333","distance":386,"name":"Ipatinga","country":"Brazil","cc":"BR","sponsor":"VIVO IIG","id":"21550","preferred":0,"https_functional":1,"host":"iig.testepower.com.br.prod.hosts.ooklaserver.net:8080"},{"url":"http:\/\/vta.testepower.com.br:8080\/speedtest\/upload.php","lat":"-20.3189","lon":"-40.3378","distance":460,"name":"Vit\u00f3ria","country":"Brazil","cc":"BR","sponsor":"VIVO VTA","id":"21544","preferred":0,"https_functional":1,"host":"vta.testepower.com.br.prod.hosts.ooklaserver.net:8080"},{"url":"http:\/\/pae.testepower.com.br:8080\/speedtest\/upload.php","lat":"-30.0331","lon":"-51.2300","distance":527,"name":"Porto Alegre","country":"Brazil","cc":"BR","sponsor":"Vivo PAE","id":"21511","preferred":0,"https_functional":1,"host":"pae.testepower.com.br.prod.hosts.ooklaserver.net:8080"},{"url":"http:\/\/bsa.testepower.com.br:8080\/speedtest\/upload.php","lat":"-15.7810","lon":"-47.9196","distance":552,"name":"Brasilia","country":"Brazil","cc":"BR","sponsor":"VIVO BSA","id":"21539","preferred":0,"https_functional":1,"host":"bsa.testepower.com.br.prod.hosts.ooklaserver.net:8080"},{"url":"http:\/\/sdr.testepower.com.br:8080\/speedtest\/upload.php","lat":"-12.9722","lon":"-38.5014","distance":908,"name":"Salvador","country":"Brazil","cc":"BR","sponsor":"VIVO SDR","id":"21537","preferred":0,"https_functional":1,"host":"sdr.testepower.com.br.prod.hosts.ooklaserver.net:8080"},{"url":"http:\/\/aju.testepower.com.br:8080\/speedtest\/upload.php","lat":"-10.9472","lon":"-37.0731","distance":1078,"name":"Aracaj\u00fa","country":"Brazil","cc":"BR","sponsor":"VIVO AJU","id":"21553","preferred":0,"https_functional":1,"host":"aju.testepower.com.br.prod.hosts.ooklaserver.net:8080"},{"url":"http:\/\/mco.testepower.com.br:8080\/speedtest\/upload.php","lat":"-9.6658","lon":"-35.7350","distance":1202,"name":"Macei\u00f3","country":"Brazil","cc":"BR","sponsor":"VIVO MCO","id":"21554","preferred":0,"https_functional":1,"host":"mco.testepower.com.br.prod.hosts.ooklaserver.net:8080"},{"url":"http:\/\/rce.testepower.com.br:8080\/speedtest\/upload.php","lat":"-8.0500","lon":"-34.9000","distance":1327,"name":"Recife","country":"Brazil","cc":"BR","sponsor":"Vivo RCE","id":"22252","preferred":0,"https_functional":1,"host":"rce.testepower.com.br.prod.hosts.ooklaserver.net:8080"},{"url":"http:\/\/jpa.testepower.com.br:8080\/speedtest\/upload.php","lat":"-7.0833","lon":"-34.8333","distance":1385,"name":"Jo\u00e3o Pessoa","country":"Brazil","cc":"BR","sponsor":"VIVO JPA","id":"21546","preferred":0,"https_functional":1,"host":"jpa.testepower.com.br.prod.hosts.ooklaserver.net:8080"},{"url":"http:\/\/ntl.testepower.com.br:8080\/speedtest\/upload.php","lat":"-5.7833","lon":"-35.2000","distance":1448,"name":"Natal","country":"Brazil","cc":"BR","sponsor":"Vivo NTL","id":"20483","preferred":0,"https_functional":1,"host":"ntl.testepower.com.br.prod.hosts.ooklaserver.net:8080"},{"url":"http:\/\/fla.testepower.com.br:8080\/speedtest\/upload.php","lat":"-3.7183","lon":"-38.5428","distance":1479,"name":"Fortaleza","country":"Brazil","cc":"BR","sponsor":"VIVO FLA","id":"21545","preferred":0,"https_functional":1,"host":"fla.testepower.com.br.prod.hosts.ooklaserver.net:8080"},{"url":"http:\/\/blm.testepower.com.br:8080\/speedtest\/upload.php","lat":"-1.4557","lon":"-48.4902","distance":1541,"name":"Bel\u00e9m","country":"Brazil","cc":"BR","sponsor":"Vivo BLM","id":"22983","preferred":0,"https_functional":1,"host":"blm.testepower.com.br.prod.hosts.ooklaserver.net:8080"},{"url":"http:\/\/mns.testepower.com.br:8080\/speedtest\/upload.php","lat":"-3.1000","lon":"-60.0167","distance":1684,"name":"Manaus","country":"Brazil","cc":"BR","sponsor":"Vivo MNS","id":"22498","preferred":0,"https_functional":1,"host":"mns.testepower.com.br.prod.hosts.ooklaserver.net:8080"},{"url":"http:\/\/speedtest.vivo.cz:8080\/speedtest\/upload.php","lat":"49.1533","lon":"16.8765","distance":6366,"name":"Slavkov u Brna","country":"Czech Republic","cc":"CZ","sponsor":"VIVO CONNECTION spol. s r.o.","id":"15684","preferred":0,"https_functional":1,"host":"speedtest.vivo.cz:8080"}]