[{"url":"http://bhe.testepower.com.br:8080/speedtest/upload.php","lat":"-19.9167","lon":"-43.9333","distance":9,"name":"Belo Horizonte","country":"Brazil","cc":"BR","sponsor":"VIVO BHE","id":"21540","preferred":0,"https_functional":1,"host":"bhe.testepower.com.br.prod.hosts.ooklaserver.net:8080","force_ping_select":1},{"url":"http://rjo.testepower.com.br:8080/speedtest/upload.php","lat":"-22.9068","lon":"-43.1729","distance":212,"name":"Rio de Janeiro","country":"Brazil","cc":"BR","sponsor":"VIVO RJO","id":"21549","preferred":0,"https_functional":1,"host":"rjo.testepower.com.br.prod.hosts.ooklaserver.net:8080","force_ping_select":1},{"url":"http://vta.testepower.com.br:8080/speedtest/upload.php","lat":"-20.3189","lon":"-40.3378","distance":243,"name":"Vitória","country":"Brazil","cc":"BR","sponsor":"VIVO VTA","id":"21544","preferred":0,"https_functional":1,"host":"vta.testepower.com.br.prod.hosts.ooklaserver.net:8080"},{"url":"http://soo.testepower.com.br:8080/speedtest/upload.php","lat":"-23.2237","lon":"-45.9009","distance":255,"name":"São José","country":"Brazil","cc":"BR","sponsor":"Vivo - SOO","id":"26612","preferred":0,"https_functional":1,"host":"soo.testepower.com.br.prod.hosts.ooklaserver.net:8080"},{"url":"http://testedevelocidade.vivo.com.br:8080/speedtest/upload.php","lat":"-23.5000","lon":"-46.6167","distance":295,"name":"São Paulo","country":"Brazil","cc":"BR","sponsor":"Vivo SPPD","id":"16438","preferred":0,"https_functional":1,"host":"testedevelocidade.vivo.com.br.prod.hosts.ooklaserver.net:8080"},{"url":"http://sts.testepower.com.br:8080/speedtest/upload.php","lat":"-23.9561","lon":"-46.3264","distance":313,"name":"Santos","country":"Brazil","cc":"BR","sponsor":"VIVO STS","id":"21552","preferred":0,"https_functional":1,"host":"sts.testepower.com.br.prod.hosts.ooklaserver.net:8080"},{"url":"http://bsa.testepower.com.br:8080/speedtest/upload.php","lat":"-15.7810","lon":"-47.9196","distance":384,"name":"Brasilia","country":"Brazil","cc":"BR","sponsor":"VIVO BSA","id":"21539","preferred":0,"https_functional":1,"host":"bsa.testepower.com.br.prod.hosts.ooklaserver.net:8080"},{"url":"http://cta.testepower.com.br:8080/speedtest/upload.php","lat":"-25.4167","lon":"-49.2500","distance":502,"name":"Curitiba","country":"Brazil","cc":"BR","sponsor":"Vivo CTA","id":"22092","preferred":0,"https_functional":1,"host":"cta.testepower.com.br.prod.hosts.ooklaserver.net:8080"},{"url":"http://sdr.testepower.com.br:8080/speedtest/upload.php","lat":"-12.9722","lon":"-38.5014","distance":608,"name":"Salvador","country":"Brazil","cc":"BR","sponsor":"VIVO SDR","id":"21537","preferred":0,"https_functional":1,"host":"sdr.testepower.com.br.prod.hosts.ooklaserver.net:8080"},{"url":"http://pmj.testepower.com.br:8080/speedtest/upload.php","lat":"-10.1844","lon":"-48.3336","distance":733,"name":"Palmas","country":"Brazil","cc":"BR","sponsor":"VIVO PMJ","id":"24618","preferred":0,"https_functional":1,"host":"pmj.testepower.com.br.prod.hosts.ooklaserver.net:8080"},{"url":"http://aju.testepower.com.br:8080/speedtest/upload.php","lat":"-10.9472","lon":"-37.0731","distance":778,"name":"Aracajú","country":"Brazil","cc":"BR","sponsor":"VIVO AJU","id":"21553","preferred":0,"https_functional":1,"host":"aju.testepower.com.br.prod.hosts.ooklaserver.net:8080"},{"url":"http://pae.testepower.com.br:8080/speedtest/upload.php","lat":"-30.0331","lon":"-51.2300","distance":829,"name":"Porto Alegre","country":"Brazil","cc":"BR","sponsor":"Vivo PAE","id":"21511","preferred":0,"https_functional":1,"host":"pae.testepower.com.br.prod.hosts.ooklaserver.net:8080"},{"url":"http://mco.testepower.com.br:8080/speedtest/upload.php","lat":"-9.6658","lon":"-35.7350","distance":903,"name":"Maceió","country":"Brazil","cc":"BR","sponsor":"VIVO MCO","id":"21554","preferred":0,"https_functional":1,"host":"mco.testepower.com.br.prod.hosts.ooklaserver.net:8080"},{"url":"http://rce.testepower.com.br:8080/speedtest/upload.php","lat":"-8.0500","lon":"-34.9000","distance":1027,"name":"Recife","country":"Brazil","cc":"BR","sponsor":"Vivo RCE","id":"22252","preferred":0,"https_functional":1,"host":"rce.testepower.com.br.prod.hosts.ooklaserver.net:8080"},{"url":"http://jpa.testepower.com.br:8080/speedtest/upload.php","lat":"-7.0833","lon":"-34.8333","distance":1084,"name":"João Pessoa","country":"Brazil","cc":"BR","sponsor":"VIVO JPA","id":"21546","preferred":0,"https_functional":1,"host":"jpa.testepower.com.br.prod.hosts.ooklaserver.net:8080"},{"url":"http://ntl.testepower.com.br:8080/speedtest/upload.php","lat":"-5.7833","lon":"-35.2000","distance":1147,"name":"Natal","country":"Brazil","cc":"BR","sponsor":"Vivo NTL","id":"20483","preferred":0,"https_functional":1,"host":"ntl.testepower.com.br.prod.hosts.ooklaserver.net:8080"},{"url":"http://fla.testepower.com.br:8080/speedtest/upload.php","lat":"-3.7183","lon":"-38.5428","distance":1183,"name":"Fortaleza","country":"Brazil","cc":"BR","sponsor":"VIVO FLA","id":"21545","preferred":0,"https_functional":1,"host":"fla.testepower.com.br.prod.hosts.ooklaserver.net:8080"},{"url":"http://blm.testepower.com.br:8080/speedtest/upload.php","lat":"-1.4557","lon":"-48.4902","distance":1314,"name":"Belém","country":"Brazil","cc":"BR","sponsor":"Vivo BLM","id":"22983","preferred":0,"https_functional":1,"host":"blm.testepower.com.br.prod.hosts.ooklaserver.net:8080"},{"url":"http://mns.testepower.com.br:8080/speedtest/upload.php","lat":"-3.1000","lon":"-60.0167","distance":1587,"name":"Manaus","country":"Brazil","cc":"BR","sponsor":"Vivo MNS","id":"22498","preferred":0,"https_functional":1,"host":"mns.testepower.com.br.prod.hosts.ooklaserver.net:8080"}]